TLE App Library/TDoA Data/Truth Data/Satellite-CSIM-To-Facility-SpaceNet1_Access.txt

                                                                                                     2 Nov 2020 11:21:10
FOR UNFUNDED EDUCATIONAL USE ONLY
Satellite-CSIM-To-Facility-SpaceNet1, Facility-SpaceNet2, Facility-SpaceNet3, Facility-SpaceNet4:  Access Summary Report


CSIM-To-SpaceNet1
-----------------
                  Access        Start Time (UTCG)           Stop Time (UTCG)        Duration (sec)
                  ------    ------------------------    ------------------------    --------------
                       1     5 Nov 2020 03:41:30.380     5 Nov 2020 03:51:04.429           574.050
                       2     5 Nov 2020 05:14:52.191     5 Nov 2020 05:27:14.399           742.208
                       3     5 Nov 2020 06:53:51.981     5 Nov 2020 07:00:18.375           386.394
                       4     5 Nov 2020 16:56:14.602     5 Nov 2020 17:07:15.124           660.521
                       5     5 Nov 2020 18:31:11.488     5 Nov 2020 18:43:08.124           716.636
                       6     5 Nov 2020 20:09:23.983     5 Nov 2020 20:13:08.560           224.577
                       7     6 Nov 2020 03:45:57.555     6 Nov 2020 03:55:50.925           593.370
                       8     6 Nov 2020 05:19:34.248     6 Nov 2020 05:31:53.640           739.392
                       9     6 Nov 2020 06:59:04.227     6 Nov 2020 07:04:35.184           330.957
                      10     6 Nov 2020 17:00:49.684     6 Nov 2020 17:12:04.786           675.102
                      11     6 Nov 2020 18:35:54.003     6 Nov 2020 18:47:42.987           708.984
                      12     6 Nov 2020 20:14:44.598     6 Nov 2020 20:16:56.911           132.312
                      13     7 Nov 2020 03:50:25.672     7 Nov 2020 04:00:36.843           611.170
                      14     7 Nov 2020 05:24:16.968     7 Nov 2020 05:36:32.538           735.570
                      15     7 Nov 2020 07:04:24.334     7 Nov 2020 07:08:44.546           260.212
                      16     7 Nov 2020 17:05:25.330     7 Nov 2020 17:16:53.486           688.156
                      17     7 Nov 2020 18:40:36.813     7 Nov 2020 18:52:17.158           700.345
                      18     8 Nov 2020 03:54:54.670     8 Nov 2020 04:05:22.255           627.585
                      19     8 Nov 2020 05:29:00.364     8 Nov 2020 05:41:11.076           730.712
                      20     8 Nov 2020 07:10:02.273     8 Nov 2020 07:12:36.491           154.218
                      21     8 Nov 2020 17:10:01.498     8 Nov 2020 17:21:41.288           699.790
                      22     8 Nov 2020 18:45:19.931     8 Nov 2020 18:56:50.622           690.691
                      23     9 Nov 2020 03:59:24.514     9 Nov 2020 04:10:07.193           642.678
                      24     9 Nov 2020 05:33:44.463     9 Nov 2020 05:45:49.240           724.776
                      25     9 Nov 2020 17:14:38.141     9 Nov 2020 17:26:28.222           710.081
                      26     9 Nov 2020 18:50:03.383     9 Nov 2020 19:01:23.348           679.966
                      27    10 Nov 2020 04:03:55.146    10 Nov 2020 04:14:51.692           656.547
                      28    10 Nov 2020 05:38:29.282    10 Nov 2020 05:50:27.008           717.727
                      29    10 Nov 2020 17:19:15.222    10 Nov 2020 17:31:14.334           719.112
                      30    10 Nov 2020 18:54:47.174    10 Nov 2020 19:05:55.332           668.158
                      31    11 Nov 2020 04:08:26.548    11 Nov 2020 04:19:35.794           669.246
                      32    11 Nov 2020 05:43:14.846    11 Nov 2020 05:55:04.355           709.509
                      33    11 Nov 2020 17:23:52.723    11 Nov 2020 17:35:59.657           726.934
                      34    11 Nov 2020 18:59:31.326    11 Nov 2020 19:10:26.540           655.214

Min Duration          12     6 Nov 2020 20:14:44.598     6 Nov 2020 20:16:56.911           132.312
Max Duration           2     5 Nov 2020 05:14:52.191     5 Nov 2020 05:27:14.399           742.208
Mean Duration                                                                              607.732
Total Duration                                                                           20662.898


CSIM-To-SpaceNet2
-----------------
                  Access        Start Time (UTCG)           Stop Time (UTCG)        Duration (sec)
                  ------    ------------------------    ------------------------    --------------
                       1     5 Nov 2020 03:40:06.964     5 Nov 2020 03:51:17.622           670.657
                       2     5 Nov 2020 05:14:54.074     5 Nov 2020 05:26:46.742           712.668
                       3     5 Nov 2020 16:55:34.459     5 Nov 2020 17:07:39.306           724.847
                       4     5 Nov 2020 18:31:12.568     5 Nov 2020 18:42:07.372           654.804
                       5     6 Nov 2020 03:44:39.210     6 Nov 2020 03:56:01.381           682.171
                       6     6 Nov 2020 05:19:40.498     6 Nov 2020 05:31:23.727           703.229
                       7     6 Nov 2020 15:29:34.716     6 Nov 2020 15:30:29.645            54.929
                       8     6 Nov 2020 17:00:12.395     6 Nov 2020 17:12:23.956           731.560
                       9     6 Nov 2020 18:35:57.188     6 Nov 2020 18:46:37.863           640.675
                      10     7 Nov 2020 03:49:12.176     7 Nov 2020 04:00:44.779           692.603
                      11     7 Nov 2020 05:24:27.730     7 Nov 2020 05:36:00.233           692.504
                      12     7 Nov 2020 15:32:57.223     7 Nov 2020 15:36:37.377           220.154
                      13     7 Nov 2020 17:04:50.695     7 Nov 2020 17:17:07.870           737.174
                      14     7 Nov 2020 18:40:42.227     7 Nov 2020 18:51:07.520           625.293
                      15     8 Nov 2020 03:53:45.829     8 Nov 2020 04:05:27.828           701.998
                      16     8 Nov 2020 05:29:15.805     8 Nov 2020 05:40:36.229           680.424
                      17     8 Nov 2020 15:37:00.713     8 Nov 2020 15:42:03.650           302.937
                      18     8 Nov 2020 17:09:29.336     8 Nov 2020 17:21:51.060           741.725
                      19     8 Nov 2020 18:45:27.718     8 Nov 2020 18:55:36.303           608.585
                      20     9 Nov 2020 02:28:44.583     9 Nov 2020 02:31:37.804           173.221
                      21     9 Nov 2020 03:58:20.154     9 Nov 2020 04:10:10.555           710.401
                      22     9 Nov 2020 05:34:04.767     9 Nov 2020 05:45:11.664           666.898
                      23     9 Nov 2020 15:41:14.493     9 Nov 2020 15:47:19.147           364.654
                      24     9 Nov 2020 17:14:08.313     9 Nov 2020 17:26:33.550           745.237
                      25     9 Nov 2020 18:50:13.709     9 Nov 2020 19:00:04.155           590.446
                      26    10 Nov 2020 02:32:40.436    10 Nov 2020 02:36:50.987           250.550
                      27    10 Nov 2020 04:02:55.144    10 Nov 2020 04:14:52.957           717.813
                      28    10 Nov 2020 05:38:54.682    10 Nov 2020 05:49:46.487           651.805
                      29    10 Nov 2020 15:45:33.803    10 Nov 2020 15:52:28.668           414.866
                      30    10 Nov 2020 17:18:47.599    10 Nov 2020 17:31:15.341           747.742
                      31    10 Nov 2020 18:55:00.261    10 Nov 2020 19:04:31.018           570.757
                      32    11 Nov 2020 02:36:46.528    11 Nov 2020 02:41:54.350           307.823
                      33    11 Nov 2020 04:07:30.786    11 Nov 2020 04:19:35.049           724.263
                      34    11 Nov 2020 05:43:45.612    11 Nov 2020 05:54:20.636           635.024
                      35    11 Nov 2020 15:49:56.717    11 Nov 2020 15:57:34.124           457.407
                      36    11 Nov 2020 17:23:27.198    11 Nov 2020 17:35:56.446           749.248
                      37    11 Nov 2020 18:59:47.446    11 Nov 2020 19:08:56.813           549.367

Min Duration           7     6 Nov 2020 15:29:34.716     6 Nov 2020 15:30:29.645            54.929
Max Duration          36    11 Nov 2020 17:23:27.198    11 Nov 2020 17:35:56.446           749.248
Mean Duration                                                                              583.958
Total Duration                                                                           21606.458


CSIM-To-SpaceNet3
-----------------
                  Access        Start Time (UTCG)           Stop Time (UTCG)        Duration (sec)
                  ------    ------------------------    ------------------------    --------------
                       1     5 Nov 2020 03:39:20.139     5 Nov 2020 03:50:06.383           646.245
                       2     5 Nov 2020 05:13:47.960     5 Nov 2020 05:25:44.433           716.472
                       3     5 Nov 2020 16:56:36.389     5 Nov 2020 17:08:44.943           728.554
                       4     5 Nov 2020 18:32:25.774     5 Nov 2020 18:42:51.368           625.594
                       5     6 Nov 2020 03:43:50.635     6 Nov 2020 03:54:51.416           660.781
                       6     6 Nov 2020 05:18:34.031     6 Nov 2020 05:30:21.163           707.132
                       7     6 Nov 2020 17:01:14.224     6 Nov 2020 17:13:29.121           734.897
                       8     6 Nov 2020 18:37:12.076     6 Nov 2020 18:47:19.672           607.596
                       9     7 Nov 2020 03:48:21.987     7 Nov 2020 03:59:35.949           673.962
                      10     7 Nov 2020 05:23:20.961     7 Nov 2020 05:34:57.345           696.384
                      11     7 Nov 2020 15:34:33.092     7 Nov 2020 15:37:23.599           170.507
                      12     7 Nov 2020 17:05:52.480     7 Nov 2020 17:18:12.511           740.031
                      13     7 Nov 2020 18:41:59.018     7 Nov 2020 18:51:46.902           587.884
                      14     8 Nov 2020 03:52:54.154     8 Nov 2020 04:04:20.021           685.867
                      15     8 Nov 2020 05:28:08.778     8 Nov 2020 05:39:32.938           684.160
                      16     8 Nov 2020 15:38:25.047     8 Nov 2020 15:43:00.395           275.348
                      17     8 Nov 2020 17:10:31.138     8 Nov 2020 17:22:55.143           744.005
                      18     8 Nov 2020 18:46:46.669     8 Nov 2020 18:56:12.990           566.321
                      19     9 Nov 2020 03:57:27.109     9 Nov 2020 04:09:03.646           696.538
                      20     9 Nov 2020 05:32:57.552     9 Nov 2020 05:44:07.903           670.351
                      21     9 Nov 2020 15:42:33.567     9 Nov 2020 15:48:20.191           346.624
                      22     9 Nov 2020 17:15:10.184     9 Nov 2020 17:27:37.016           746.832
                      23     9 Nov 2020 18:51:35.144     9 Nov 2020 19:00:37.819           542.676
                      24    10 Nov 2020 04:02:00.825    10 Nov 2020 04:13:46.859           706.035
                      25    10 Nov 2020 05:37:47.332    10 Nov 2020 05:48:42.165           654.833
                      26    10 Nov 2020 15:46:49.486    10 Nov 2020 15:53:32.156           402.669
                      27    10 Nov 2020 17:19:49.604    10 Nov 2020 17:32:18.156           748.552
                      28    10 Nov 2020 18:56:24.558    10 Nov 2020 19:05:01.254           516.696
                      29    11 Nov 2020 04:06:35.282    11 Nov 2020 04:18:29.668           714.386
                      30    11 Nov 2020 05:42:38.201    11 Nov 2020 05:53:15.664           637.463
                      31    11 Nov 2020 15:51:09.921    11 Nov 2020 15:58:39.176           449.256
                      32    11 Nov 2020 17:24:29.383    11 Nov 2020 17:36:58.566           749.182
                      33    11 Nov 2020 19:01:15.096    11 Nov 2020 19:09:23.114           488.018

Min Duration          11     7 Nov 2020 15:34:33.092     7 Nov 2020 15:37:23.599           170.507
Max Duration          32    11 Nov 2020 17:24:29.383    11 Nov 2020 17:36:58.566           749.182
Mean Duration                                                                              615.814
Total Duration                                                                           20321.850


CSIM-To-SpaceNet4
-----------------
                  Access        Start Time (UTCG)           Stop Time (UTCG)        Duration (sec)
                  ------    ------------------------    ------------------------    --------------
                       1     5 Nov 2020 03:40:58.148     5 Nov 2020 03:49:41.868           523.719
                       2     5 Nov 2020 05:13:48.879     5 Nov 2020 05:26:12.816           743.936
                       3     5 Nov 2020 06:52:49.516     5 Nov 2020 06:59:01.589           372.073
                       4     5 Nov 2020 16:57:17.934     5 Nov 2020 17:08:23.015           665.081
                       5     5 Nov 2020 18:32:17.354     5 Nov 2020 18:44:02.214           704.859
                       6     6 Nov 2020 03:45:22.090     6 Nov 2020 03:54:31.041           548.951
                       7     6 Nov 2020 05:18:30.316     6 Nov 2020 05:30:52.149           741.833
                       8     6 Nov 2020 06:58:04.963     6 Nov 2020 07:03:14.244           309.281
                       9     6 Nov 2020 17:01:52.532     6 Nov 2020 17:13:12.486           679.954
                      10     6 Nov 2020 18:37:00.717     6 Nov 2020 18:48:35.756           695.039
                      11     7 Nov 2020 03:49:47.341     7 Nov 2020 03:59:19.295           571.953
                      12     7 Nov 2020 05:23:12.464     7 Nov 2020 05:35:31.084           738.621
                      13     7 Nov 2020 07:03:31.465     7 Nov 2020 07:07:16.237           224.771
                      14     7 Nov 2020 17:06:27.770     7 Nov 2020 17:18:00.937           693.167
                      15     7 Nov 2020 18:41:44.481     7 Nov 2020 18:53:08.499           684.019
                      16     8 Nov 2020 03:54:13.792     8 Nov 2020 04:04:06.738           592.946
                      17     8 Nov 2020 05:27:55.336     8 Nov 2020 05:40:09.598           734.262
                      18     8 Nov 2020 07:09:40.982     8 Nov 2020 07:10:35.591            54.610
                      19     8 Nov 2020 17:11:03.594     8 Nov 2020 17:22:48.426           704.832
                      20     8 Nov 2020 18:46:28.673     8 Nov 2020 18:57:40.420           671.747
                      21     9 Nov 2020 03:58:41.325     9 Nov 2020 04:08:53.466           612.141
                      22     9 Nov 2020 05:32:38.945     9 Nov 2020 05:44:47.684           728.738
                      23     9 Nov 2020 17:15:39.966     9 Nov 2020 17:27:35.009           715.043
                      24     9 Nov 2020 18:51:13.313     9 Nov 2020 19:02:11.478           658.165
                      25    10 Nov 2020 04:03:09.879    10 Nov 2020 04:13:39.555           629.676
                      26    10 Nov 2020 05:37:23.322    10 Nov 2020 05:49:25.313           721.992
                      27    10 Nov 2020 17:20:16.847    10 Nov 2020 17:32:20.725           723.879
                      28    10 Nov 2020 18:55:58.434    10 Nov 2020 19:06:41.636           643.202
                      29    11 Nov 2020 04:07:39.381    11 Nov 2020 04:18:25.067           645.687
                      30    11 Nov 2020 05:42:08.484    11 Nov 2020 05:54:02.462           713.978
                      31    11 Nov 2020 17:24:54.196    11 Nov 2020 17:37:05.597           731.401
                      32    11 Nov 2020 19:00:44.087    11 Nov 2020 19:11:10.852           626.765

Min Duration          18     8 Nov 2020 07:09:40.982     8 Nov 2020 07:10:35.591            54.610
Max Duration           2     5 Nov 2020 05:13:48.879     5 Nov 2020 05:26:12.816           743.936
Mean Duration                                                                              618.948
Total Duration                                                                           19806.321

Global Statistics
-----------------
Min Duration          18     8 Nov 2020 07:09:40.982     8 Nov 2020 07:10:35.591            54.610
Max Duration          36    11 Nov 2020 17:23:27.198    11 Nov 2020 17:35:56.446           749.248
Mean Duration                                                                              605.864
Total Duration                                                                           82397.526
