TLE App Library/TDoA Data/Truth Data/Satellite-CSIM-To-Facility-SpaceNet1_Access.txt

                                                                                                     9 Nov 2020 17:55:31
FOR UNFUNDED EDUCATIONAL USE ONLY
Satellite-CSIM-To-Facility-SpaceNet1, Facility-SpaceNet2, Facility-SpaceNet3, Facility-SpaceNet4:  Access Summary Report


CSIM-To-SpaceNet1
-----------------
                  Access        Start Time (UTCG)           Stop Time (UTCG)        Duration (sec)
                  ------    ------------------------    ------------------------    --------------
                       1     5 Nov 2020 03:25:44.039     5 Nov 2020 03:33:55.237           491.197
                       2     5 Nov 2020 04:58:10.136     5 Nov 2020 05:10:33.010           742.874
                       3     5 Nov 2020 06:35:50.152     5 Nov 2020 06:44:29.316           519.165
                       4     5 Nov 2020 16:39:50.791     5 Nov 2020 16:49:48.296           597.505
                       5     5 Nov 2020 18:14:18.404     5 Nov 2020 18:26:34.934           736.530
                       6     5 Nov 2020 19:51:27.451     5 Nov 2020 19:58:06.094           398.643
                       7     6 Nov 2020 03:29:57.749     6 Nov 2020 03:38:34.187           516.438
                       8     6 Nov 2020 05:02:39.934     6 Nov 2020 05:15:03.432           743.498
                       9     6 Nov 2020 06:40:39.591     6 Nov 2020 06:48:47.346           487.755
                      10     6 Nov 2020 16:44:13.552     6 Nov 2020 16:54:31.374           617.822
                      11     6 Nov 2020 18:18:49.844     6 Nov 2020 18:31:02.222           732.378
                      12     6 Nov 2020 19:56:11.994     6 Nov 2020 20:02:12.405           360.411
                      13     7 Nov 2020 03:34:12.540     7 Nov 2020 03:43:12.126           539.586
                      14     7 Nov 2020 05:07:10.182     7 Nov 2020 05:19:33.395           743.213
                      15     7 Nov 2020 06:45:31.132     7 Nov 2020 06:53:03.322           452.190
                      16     7 Nov 2020 16:48:36.996     7 Nov 2020 16:59:13.149           636.154
                      17     7 Nov 2020 18:23:21.372     7 Nov 2020 18:35:28.728           727.355
                      18     7 Nov 2020 20:00:59.078     7 Nov 2020 20:06:15.439           316.361
                      19     8 Nov 2020 03:38:28.304     8 Nov 2020 03:47:49.205           560.901
                      20     8 Nov 2020 05:11:40.903     8 Nov 2020 05:24:02.947           742.044
                      21     8 Nov 2020 06:50:25.351     8 Nov 2020 06:57:16.732           411.381
                      22     8 Nov 2020 16:53:00.958     8 Nov 2020 17:03:53.712           652.754
                      23     8 Nov 2020 18:27:53.011     8 Nov 2020 18:39:54.485           721.473
                      24     8 Nov 2020 20:05:50.087     8 Nov 2020 20:10:13.797           263.710
                      25     9 Nov 2020 03:42:44.910     9 Nov 2020 03:52:25.461           580.551
                      26     9 Nov 2020 05:16:12.067     9 Nov 2020 05:28:32.014           739.947
                      27     9 Nov 2020 06:55:23.112     9 Nov 2020 07:01:26.617           363.505
                      28     9 Nov 2020 16:57:25.398     9 Nov 2020 17:08:33.150           667.753
                      29     9 Nov 2020 18:32:24.774     9 Nov 2020 18:44:19.475           714.701
                      30     9 Nov 2020 20:10:48.480     9 Nov 2020 20:14:04.078           195.599
                      31    10 Nov 2020 03:47:02.308    10 Nov 2020 03:57:01.023           598.715
                      32    10 Nov 2020 05:20:43.716    10 Nov 2020 05:33:00.635           736.919
                      33    10 Nov 2020 07:00:26.128    10 Nov 2020 07:05:31.371           305.243
                      34    10 Nov 2020 17:01:50.271    10 Nov 2020 17:13:11.525           681.254
                      35    10 Nov 2020 18:36:56.680    10 Nov 2020 18:48:43.696           707.016
                      36    10 Nov 2020 20:16:10.666    10 Nov 2020 20:17:29.858            79.193
                      37    11 Nov 2020 03:51:20.441    11 Nov 2020 04:01:35.934           615.493
                      38    11 Nov 2020 05:25:15.851    11 Nov 2020 05:37:28.813           732.962
                      39    11 Nov 2020 07:05:38.333    11 Nov 2020 07:09:27.044           228.711
                      40    11 Nov 2020 17:06:15.527    11 Nov 2020 17:17:48.889           693.362
                      41    11 Nov 2020 18:41:28.743    11 Nov 2020 18:53:07.135           698.392

Min Duration          36    10 Nov 2020 20:16:10.666    10 Nov 2020 20:17:29.858            79.193
Max Duration           8     6 Nov 2020 05:02:39.934     6 Nov 2020 05:15:03.432           743.498
Mean Duration                                                                              562.211
Total Duration                                                                           23050.652


CSIM-To-SpaceNet2
-----------------
                  Access        Start Time (UTCG)           Stop Time (UTCG)        Duration (sec)
                  ------    ------------------------    ------------------------    --------------
                       1     5 Nov 2020 03:24:00.333     5 Nov 2020 03:34:20.490           620.157
                       2     5 Nov 2020 04:57:57.714     5 Nov 2020 05:10:12.428           734.714
                       3     5 Nov 2020 06:38:24.357     5 Nov 2020 06:42:07.692           223.335
                       4     5 Nov 2020 16:38:58.665     5 Nov 2020 16:50:32.079           693.414
                       5     5 Nov 2020 18:14:12.854     5 Nov 2020 18:25:48.556           695.702
                       6     6 Nov 2020 03:28:20.227     6 Nov 2020 03:38:55.613           635.387
                       7     6 Nov 2020 05:02:31.424     6 Nov 2020 05:14:40.975           729.551
                       8     6 Nov 2020 06:44:10.708     6 Nov 2020 06:45:31.305            80.597
                       9     6 Nov 2020 16:43:25.215     6 Nov 2020 16:55:09.232           704.017
                      10     6 Nov 2020 18:18:46.079     6 Nov 2020 18:30:11.937           685.858
                      11     7 Nov 2020 03:32:40.736     7 Nov 2020 03:43:30.154           649.418
                      12     7 Nov 2020 05:07:05.646     7 Nov 2020 05:19:09.000           723.354
                      13     7 Nov 2020 16:47:52.087     7 Nov 2020 16:59:45.463           713.376
                      14     7 Nov 2020 18:23:19.430     7 Nov 2020 18:34:34.464           675.034
                      15     8 Nov 2020 03:37:01.860     8 Nov 2020 03:48:04.166           662.306
                      16     8 Nov 2020 05:11:40.425     8 Nov 2020 05:23:36.526           716.101
                      17     8 Nov 2020 16:52:19.182     8 Nov 2020 17:04:20.796           721.615
                      18     8 Nov 2020 18:27:52.972     8 Nov 2020 18:38:56.169           663.197
                      19     9 Nov 2020 03:41:23.531     9 Nov 2020 03:52:37.635           674.104
                      20     9 Nov 2020 05:16:15.742     9 Nov 2020 05:28:03.476           707.734
                      21     9 Nov 2020 16:56:46.507     9 Nov 2020 17:08:55.270           728.763
                      22     9 Nov 2020 18:32:26.702     9 Nov 2020 18:43:17.008           650.307
                      23    10 Nov 2020 03:45:45.747    10 Nov 2020 03:57:10.629           684.882
                      24    10 Nov 2020 05:20:51.648    10 Nov 2020 05:32:29.878           698.231
                      25    10 Nov 2020 15:29:54.233    10 Nov 2020 15:32:20.895           146.662
                      26    10 Nov 2020 17:01:14.050    10 Nov 2020 17:13:28.902           734.852
                      27    10 Nov 2020 18:37:00.676    10 Nov 2020 18:47:36.970           636.294
                      28    11 Nov 2020 03:50:08.490    11 Nov 2020 04:01:43.157           694.666
                      29    11 Nov 2020 05:25:28.186    11 Nov 2020 05:36:55.696           687.510
                      30    11 Nov 2020 15:33:34.592    11 Nov 2020 15:37:48.827           254.235
                      31    11 Nov 2020 17:05:41.796    11 Nov 2020 17:18:01.724           739.929
                      32    11 Nov 2020 18:41:34.920    11 Nov 2020 18:51:56.017           621.097

Min Duration           8     6 Nov 2020 06:44:10.708     6 Nov 2020 06:45:31.305            80.597
Max Duration          31    11 Nov 2020 17:05:41.796    11 Nov 2020 17:18:01.724           739.929
Mean Duration                                                                              624.575
Total Duration                                                                           19986.397


CSIM-To-SpaceNet3
-----------------
                  Access        Start Time (UTCG)           Stop Time (UTCG)        Duration (sec)
                  ------    ------------------------    ------------------------    --------------
                       1     5 Nov 2020 03:23:21.090     5 Nov 2020 03:33:03.416           582.325
                       2     5 Nov 2020 04:56:53.228     5 Nov 2020 05:09:10.520           737.292
                       3     5 Nov 2020 06:37:38.844     5 Nov 2020 06:40:31.377           172.533
                       4     5 Nov 2020 16:40:01.423     5 Nov 2020 16:51:39.050           697.627
                       5     5 Nov 2020 18:15:21.500     5 Nov 2020 18:26:38.833           677.333
                       6     6 Nov 2020 03:27:38.617     6 Nov 2020 03:37:40.410           601.793
                       7     6 Nov 2020 05:01:26.449     6 Nov 2020 05:13:39.014           732.565
                       8     6 Nov 2020 16:44:27.668     6 Nov 2020 16:56:15.892           708.224
                       9     6 Nov 2020 18:19:55.819     6 Nov 2020 18:31:00.651           664.833
                      10     7 Nov 2020 03:31:56.985     7 Nov 2020 03:42:16.602           619.617
                      11     7 Nov 2020 05:06:00.217     7 Nov 2020 05:18:06.940           726.723
                      12     7 Nov 2020 16:48:54.295     7 Nov 2020 17:00:51.768           717.473
                      13     7 Nov 2020 18:24:30.389     7 Nov 2020 18:35:21.500           651.111
                      14     8 Nov 2020 03:36:16.163     8 Nov 2020 03:46:52.088           635.925
                      15     8 Nov 2020 05:10:34.591     8 Nov 2020 05:22:34.307           719.715
                      16     8 Nov 2020 16:53:21.202     8 Nov 2020 17:05:26.711           725.509
                      17     8 Nov 2020 18:29:05.276     8 Nov 2020 18:39:41.376           636.100
                      18     9 Nov 2020 03:40:36.048     9 Nov 2020 03:51:26.876           650.828
                      19     9 Nov 2020 05:15:09.543     9 Nov 2020 05:27:01.037           711.494
                      20     9 Nov 2020 16:57:48.395     9 Nov 2020 17:10:00.741           732.346
                      21     9 Nov 2020 18:33:40.527     9 Nov 2020 18:44:00.221           619.694
                      22    10 Nov 2020 03:44:56.622    10 Nov 2020 03:56:01.044           664.423
                      23    10 Nov 2020 05:19:45.134    10 Nov 2020 05:31:27.161           702.027
                      24    10 Nov 2020 17:02:15.860    10 Nov 2020 17:14:33.901           738.041
                      25    10 Nov 2020 18:38:16.195    10 Nov 2020 18:48:17.997           601.802
                      26    11 Nov 2020 03:49:17.856    11 Nov 2020 04:00:34.627           676.770
                      27    11 Nov 2020 05:24:21.401    11 Nov 2020 05:35:52.642           691.241
                      28    11 Nov 2020 15:35:04.928    11 Nov 2020 15:38:40.262           215.334
                      29    11 Nov 2020 17:06:43.585    11 Nov 2020 17:19:06.205           742.620
                      30    11 Nov 2020 18:42:52.351    11 Nov 2020 18:52:34.630           582.279

Min Duration           3     5 Nov 2020 06:37:38.844     5 Nov 2020 06:40:31.377           172.533
Max Duration          29    11 Nov 2020 17:06:43.585    11 Nov 2020 17:19:06.205           742.620
Mean Duration                                                                              644.520
Total Duration                                                                           19335.599


CSIM-To-SpaceNet4
-----------------
                  Access        Start Time (UTCG)           Stop Time (UTCG)        Duration (sec)
                  ------    ------------------------    ------------------------    --------------
                       1     5 Nov 2020 03:25:27.826     5 Nov 2020 03:32:18.708           410.883
                       2     5 Nov 2020 04:57:09.372     5 Nov 2020 05:09:30.643           741.271
                       3     5 Nov 2020 06:34:43.351     5 Nov 2020 06:43:19.976           516.625
                       4     5 Nov 2020 16:40:56.520     5 Nov 2020 16:50:56.346           599.827
                       5     5 Nov 2020 18:15:21.977     5 Nov 2020 18:27:32.984           731.006
                       6     5 Nov 2020 19:53:30.329     5 Nov 2020 19:57:53.721           263.392
                       7     6 Nov 2020 03:29:36.099     6 Nov 2020 03:37:02.505           446.406
                       8     6 Nov 2020 05:01:38.413     6 Nov 2020 05:14:01.348           742.935
                       9     6 Nov 2020 06:39:33.521     6 Nov 2020 06:47:36.456           482.935
                      10     6 Nov 2020 16:45:18.487     6 Nov 2020 16:55:39.486           620.999
                      11     6 Nov 2020 18:19:53.956     6 Nov 2020 18:31:59.270           725.314
                      12     6 Nov 2020 19:58:34.177     6 Nov 2020 20:01:40.017           185.840
                      13     7 Nov 2020 03:33:46.332     7 Nov 2020 03:41:44.416           478.084
                      14     7 Nov 2020 05:06:07.949     7 Nov 2020 05:18:31.542           743.593
                      15     7 Nov 2020 06:44:26.098     7 Nov 2020 06:51:50.544           444.445
                      16     7 Nov 2020 16:49:41.241     7 Nov 2020 17:00:21.239           639.998
                      17     7 Nov 2020 18:24:26.090     7 Nov 2020 18:36:24.704           718.614
                      18     8 Nov 2020 03:37:58.207     8 Nov 2020 03:46:24.824           506.618
                      19     8 Nov 2020 05:10:38.010     8 Nov 2020 05:23:01.261           743.251
                      20     8 Nov 2020 06:49:21.837     8 Nov 2020 06:56:01.561           399.724
                      21     8 Nov 2020 16:54:04.608     8 Nov 2020 17:05:01.713           657.105
                      22     8 Nov 2020 18:28:58.425     8 Nov 2020 18:40:49.321           710.897
                      23     9 Nov 2020 03:42:11.423     9 Nov 2020 03:51:03.929           532.506
                      24     9 Nov 2020 05:15:08.559     9 Nov 2020 05:27:30.441           741.882
                      25     9 Nov 2020 06:54:21.927     9 Nov 2020 07:00:08.224           346.298
                      26     9 Nov 2020 16:58:28.531     9 Nov 2020 17:09:40.992           672.461
                      27     9 Nov 2020 18:33:30.954     9 Nov 2020 18:45:13.089           702.135
                      28    10 Nov 2020 03:46:25.839    10 Nov 2020 03:55:41.943           556.104
                      29    10 Nov 2020 05:19:39.630    10 Nov 2020 05:31:59.134           739.504
                      30    10 Nov 2020 06:59:28.906    10 Nov 2020 07:04:08.079           279.173
                      31    10 Nov 2020 17:02:52.972    10 Nov 2020 17:14:19.153           686.181
                      32    10 Nov 2020 18:38:03.719    10 Nov 2020 18:49:36.001           692.282
                      33    11 Nov 2020 03:50:41.315    11 Nov 2020 04:00:19.007           577.693
                      34    11 Nov 2020 05:24:11.232    11 Nov 2020 05:36:27.319           736.087
                      35    11 Nov 2020 07:04:50.064    11 Nov 2020 07:07:53.845           183.781
                      36    11 Nov 2020 17:07:17.860    11 Nov 2020 17:18:56.254           698.394
                      37    11 Nov 2020 18:42:36.733    11 Nov 2020 18:53:58.036           681.303

Min Duration          35    11 Nov 2020 07:04:50.064    11 Nov 2020 07:07:53.845           183.781
Max Duration          14     7 Nov 2020 05:06:07.949     7 Nov 2020 05:18:31.542           743.593
Mean Duration                                                                              576.636
Total Duration                                                                           21335.544

Global Statistics
-----------------
Min Duration          36    10 Nov 2020 20:16:10.666    10 Nov 2020 20:17:29.858            79.193
Max Duration          14     7 Nov 2020 05:06:07.949     7 Nov 2020 05:18:31.542           743.593
Mean Duration                                                                              597.916
Total Duration                                                                           83708.191
